{"173": {"writer_name": "\uae40\uac74", "category": "\uae30\ud0c0", "lat": "37.61058571479704", "lon": "126.99784535963579", "loc_name": "\uc815\uc0c1\uc5b4\ud559\uc6d0"}, "172": {"writer_name": "\ubc15\uc9c0\uc218", "category": "\uae30\ud0c0", "lat": "37.591755969869", "lon": "127.01765080097", "loc_name": "\uc131\uc2e0\uc5ec\ub300 \ucf54\uc778 \ub178\ub798 \uc5f0\uc2b5\uc7a5"}, "171": {"writer_name": "\uc774\ucc44\uc601", "category": "\uae30\ud0c0", "lat": "37.591523097635", "lon": "127.01802022675", "loc_name": "\ubfd4\ub09c\uc5ec\uc6b0"}, "168": {"writer_name": "\uae40\uac74", "category": "\uae30\ud0c0", "lat": "37.604381031969", "lon": "127.0223254802", "loc_name": "\ub77c\uc6b4\uc9c0PC\ubc29"}, "170": {"writer_name": "\ubc15\uc9c0\uc218", "category": "\uae30\ud0c0", "lat": "37.592618549891", "lon": "127.01712133748", "loc_name": "\uc131\uc2e0\uc5ec\ub300 \uc720\ud0c0\ubab0 \uc138\ube10 \ud53c\uc2dc\ubc29"}, "169": {"writer_name": "\uc774\ucc44\uc601", "category": "\uae30\ud0c0", "lat": "37.591500468667", "lon": "127.01777615865", "loc_name": "\uc2a4\ud130\ub514\uce74\ud398 \uc2a4\ud398\ub85c"}, "167": {"writer_name": "\uae40\uac74\uc6b0", "category": "\uae30\ud0c0", "lat": "37.591537281637", "lon": "127.01803846143", "loc_name": "\uc5d8 \ud53c\uc2dc\ubc29"}, "166": {"writer_name": "\uae40\uac74\uc6b0", "category": "\uae30\ud0c0", "lat": "37.591467837451", "lon": "127.01810309472", "loc_name": "\uc0d8\uc774\uae4a\uc740\uad6d\uc5b4\ud559\uc6d0"}, "151": {"writer_name": "\uae40\uac74\ud76c", "category": "\uae30\ud0c0", "lat": "37.6074454", "lon": "127.0194661", "loc_name": "\uacc4\uc131\uace0\ub4f1\ud559\uad50 "}, "165": {"writer_name": "\uc804\uac00\uc740", "category": "\uae30\ud0c0", "lat": "37.61058571479704", "lon": "126.99784535963579", "loc_name": "\ud22c\uc378\ud50c\ub808\uc774\uc2a4 \uc131\uc2e0\uc5ec\ub300\uc810"}, "164": {"writer_name": "\uc784\uc720\uc131, \ubc15\ubbfc\uc11c, \uc774\ud604\uc9c0", "category": "\uae30\ud0c0", "lat": "37.613853", "lon": "127.0304899", "loc_name": "\uac15\ubd81\uad6c \ubbf8\uc544\uc0ac\uac70\ub9ac \uc5e3\uc9c0\ucf54\uc778\ub178\ub798\ubc29"}, "163": {"writer_name": "\uc804\uac00\uc740", "category": "\uae30\ud0c0", "lat": "37.61058571479704", "lon": "126.99784535963579", "loc_name": "\uc545\uc4f0\ub294\ud558\ub9c8\ucf54\ub178 \uc131\uc2e0\uc5ec\ub300\uc810"}, "162": {"writer_name": "\uc784\uc720\uc131, \ubc15\ubbfc\uc11c, \uc774\ud604\uc9c0", "category": "\uae30\ud0c0", "lat": "37.6132134", "lon": "127.0302481", "loc_name": "\uac15\ubd81\uad6c \ubbf8\uc544\uc0ac\uac70\ub9ac \ub9e5\ub3c4\ub0a0\ub4dc"}, "161": {"writer_name": "\uae40\uac74\ud76c ", "category": "\uae30\ud0c0", "lat": "37.6080524", "lon": "127.0287907", "loc_name": "\ud604\ub300\ubc31\ud654\uc810 \ubbf8\uc544\uc810 "}, "160": {"writer_name": "\ud558\uc6d0\ucca0", "category": "\uae30\ud0c0", "lat": "37.5924013", "lon": "127.0170086", "loc_name": "RICOSTAR \ub178\ub798\ubc29 \uc131\uc2e0\uc5ec\ub300\uc811"}, "159": {"writer_name": "\uc784\uc720\uc131, \ubc15\ubbfc\uc11c, \uc774\ud604\uc9c0", "category": "\uae30\ud0c0", "lat": "37.614854337737", "lon": "127.02936083534", "loc_name": "\uac15\ubd81\uad6c \ubbf8\uc544\uc0ac\uac70\ub9ac \uc624\ud22c\uc2a4\ud130\ub514\uce74\ud398"}, "158": {"writer_name": "\uae08\uc2dc\uc724", "category": "\uae30\ud0c0", "lat": "37.605329056258", "lon": "127.02384482034", "loc_name": "\uc138\ube10 \ud53c\uc2dc\ubc29"}, "157": {"writer_name": "\ud55c\ucc44\uc740", "category": "\uae30\ud0c0", "lat": "37.603057460841", "lon": "127.02372697295", "loc_name": "\ub204\ub9ac\uc548 \uad6d\uc5b4\ub17c\uc220 \ud559\uc6d0"}, "155": {"writer_name": "\ud558\uc6d0\ucca0", "category": "\uae30\ud0c0", "lat": "37.602216576084", "lon": "127.02523758931", "loc_name": "\uae38\uc74c \ubbf8\ub798\ud0d0\uad6c\ud559\uc6d0"}, "156": {"writer_name": "\uae08\uc2dc\uc724", "category": "\uae30\ud0c0", "lat": "37.605329056258", "lon": "127.02384482034", "loc_name": "\uce74\ud398\uc778 \ubd81"}, "153": {"writer_name": "\uc784\uc720\uc131, \ubc15\ubbfc\uc11c, \uc774\ud604\uc9c0", "category": "\uae30\ud0c0", "lat": "37.6116998", "lon": "127.0193771", "loc_name": "\uc131\ubd81\uad6c \uae38\uc74c\ub274\ud0c0\uc6b4 4\ub2e8\uc9c0 \ub3c5\uc11c\uc2e4"}, "152": {"writer_name": "\ud55c\ucc44\uc740", "category": "\uacf5\uc6d0", "lat": "37.60797255376", "lon": "127.02147375537", "loc_name": "\uc194\ud5a5\uae30 \uc5b4\ub9b0\uc774\uacf5\uc6d0"}, "127": {"writer_name": "\uc774\uc608\ud604", "category": "\uae30\ud0c0", "lat": "21.0248927", "lon": "105.8528466", "loc_name": "Trang tien plaza"}, "120": {"writer_name": "\ub178\ud604", "category": "\ubcf5\uc9c0\uc2dc\uc124", "lat": "37.5804507", "lon": "126.9198552", "loc_name": "\uad81\ub3d9\uc0b0 \uccb4\uc721\uad00 \uc785\uad6c"}, "119": {"writer_name": "\ub178\ud604", "category": "\ud1b5\ud559\ub85c", "lat": "37.6112123", "lon": "127.0011572", "loc_name": "\uc815\ub989\uc885\ud569\uc0ac\ud68c\ubcf5\uc9c0\uad00 \ub0b4\ub9ac\ub9c9\uae38"}, "118": {"writer_name": "\uc774\uc6d0\ud615", "category": "\uc9c0\ud558\ucca0\uc5ed", "lat": "37.5663262", "lon": "126.9926349", "loc_name": "\uc744\uc9c0\ub85c3\uac00 \uc678\ubd80"}, "117": {"writer_name": "\uc774\uc6d0\ud615", "category": "\uc9c0\ud558\ucca0\uc5ed", "lat": "37.566248", "lon": "126.9909739", "loc_name": "\uc744\uc9c0\ub85c3\uac00 \ub0b4\ubd80"}, "116": {"writer_name": "\uc774\uc9c4\uc6a9", "category": "\uc9c0\ud558\ucca0\uc5ed", "lat": "37.4846007", "lon": "126.9294961", "loc_name": "\uc2e0\ub9bc\uc5ed \uc678\ubd80"}, "115": {"writer_name": "\uc774\uc9c4\uc6a9", "category": "\uc9c0\ud558\ucca0\uc5ed", "lat": "37.4842129", "lon": "126.9297003", "loc_name": "\uc2e0\ub9bc\uc5ed \ub0b4\ubd80"}, "114": {"writer_name": "\uc774\uc9c4\uc6a9", "category": "\uc9c0\ud558\ucca0\uc5ed", "lat": "37.5267199", "lon": "126.8967548", "loc_name": "\uc601\ub4f1\ud3ec\uad6c\uccad\uc5ed \uc678\ubd80"}, "113": {"writer_name": "\uc774\uc9c4\uc6a9", "category": "\uc9c0\ud558\ucca0\uc5ed", "lat": "37.5257905", "lon": "126.8966175", "loc_name": "\uc601\ub4f1\ud3ec\uad6c\uccad\uc5ed \ub0b4\ubd80"}, "112": {"writer_name": "\uc774\uc9c4\uc6a9", "category": "\uc9c0\ud558\ucca0\uc5ed", "lat": "37.5348", "lon": "126.9029263", "loc_name": "\ub2f9\uc0b0\uc5ed \uc678\ubd80"}, "111": {"writer_name": "\uc774\uc9c4\uc6a9", "category": "\uc9c0\ud558\ucca0\uc5ed", "lat": "37.5349841", "lon": "126.9027553", "loc_name": "\ub2f9\uc0b0\uc5ed \ub0b4\ubd80"}, "87": {"writer_name": "\uc815\uc608\uc9c4", "category": "\uae30\ud0c0", "lat": "37.5841231", "lon": "127.0018143", "loc_name": "\ub2e4\uc774\uc18c \ub300\ud559\ub85c\uc810"}, "86": {"writer_name": "\uc815\uc608\uc9c4", "category": "\uc9c0\ud558\ucca0\uc5ed", "lat": "37.5820423", "lon": "127.0019015", "loc_name": "\ud61c\ud654\uc5ed \uc810\uc790\ube14\ub7ed"}, "107": {"writer_name": "\uae40\ubbfc\uc601", "category": "\ubcf5\uc9c0\uc2dc\uc124", "lat": "37.6086165", "lon": "126.9323995", "loc_name": "\uc11c\uc6b8\ud601\uc2e0\ud30c\ud06c \uc7ac\uc0dd\ub3d9 \uc785\uad6c \uc55e"}, "106": {"writer_name": "\uac15\ubbfc\uc8fc", "category": "\uae30\ud0c0", "lat": "37.4971038", "lon": "126.7707081", "loc_name": "1711\ubc84\uc2a4"}, "105": {"writer_name": "\uac15\ubbfc\uc8fc", "category": "\uc9c0\ud558\ucca0\uc5ed", "lat": "37.565706", "lon": "126.9772122", "loc_name": "\uc2dc\uccad\uc5ed"}, "104": {"writer_name": "\uac15\ubbfc\uc8fc", "category": "\uae30\ud0c0", "lat": "37.4970337", "lon": "126.7707753", "loc_name": "\uad6d\ubbfc\ub300\ud559\uad50 \uc608\uc220\uad00"}, "101": {"writer_name": "\uae40\ube5b\uc5ec\uc6b8", "category": "\uc9c0\ud558\ucca0\uc5ed", "lat": "37.5823252", "lon": "127.0018443", "loc_name": "\ud61c\ud654\uc5ed"}, "100": {"writer_name": "\ud669\uc18c\uc6b0", "category": "\uae30\ud0c0", "lat": "37.6105857", "lon": "126.9978454", "loc_name": "\uc131\ubcf5\uad6c \uc8fc\ucc28\uc7a5"}, "99": {"writer_name": "\uc54c\ube44\ub098", "category": "\ubcf5\uc9c0\uc2dc\uc124", "lat": "37.6370451", "lon": "127.0250631", "loc_name": "\ubcf5\uce58\uc2dc\uc124\ucc28"}, "96": {"writer_name": "\ud669\uc18c\uc6b0", "category": "\uae30\ud0c0", "lat": "37.6105857", "lon": "126.9978454", "loc_name": "\uc131\ubcf5\uad6c \uc740\ud589"}, "97": {"writer_name": "\ud669\uc18c\uc6b0", "category": "\uae30\ud0c0", "lat": "37.6105857", "lon": "126.9978454", "loc_name": "\ub2e4\uc774\uc18c"}, "98": {"writer_name": "\ud669\uc18c\uc6b0", "category": "\uae30\ud0c0", "lat": "37.6105857", "lon": "126.9978454", "loc_name": "\uc131\ubcf5\uad6c"}, "95": {"writer_name": "\ud669\uc18c\uc6b0", "category": "\uae30\ud0c0", "lat": "37.6133273", "lon": "126.9987048", "loc_name": "\uc815\ub989\ub3d9 \uc131\ubcf5\uad6c \uc6b0\uccb4\uad6d"}, "94": {"writer_name": "\uc774\uc900\uc11c", "category": "\uc9c0\ud558\ucca0\uc5ed", "lat": "37.5112744", "lon": "127.0858252", "loc_name": "\uc7a0\uc2e4\uc0c8\ub0b4\uc5ed \uc678\ubd80"}, "93": {"writer_name": "\uc774\uc900\uc11c", "category": "\uc9c0\ud558\ucca0\uc5ed", "lat": "37.5115856", "lon": "127.086165", "loc_name": "\uc7a0\uc2e4\uc0c8\ub0b4\uc5ed \ub0b4\ubd80"}, "92": {"writer_name": "\uc774\uc900\uc11c", "category": "\uc9c0\ud558\ucca0\uc5ed", "lat": "37.5006106", "lon": "127.0364227", "loc_name": "\uc5ed\uc0bc\uc5ed \ub0b4\ubd80"}, "91": {"writer_name": "\uc774\uc900\uc11c", "category": "\uc9c0\ud558\ucca0\uc5ed", "lat": "37.5004522", "lon": "127.0367186", "loc_name": "\uc5ed\uc0bc\uc5ed"}, "90": {"writer_name": "\ubc15\uacbd\ud658", "category": "\uc2dc\uccad", "lat": "37.5893628", "lon": "127.0167353", "loc_name": "\uc131\ubd81\uad6c\uccad"}, "89": {"writer_name": "\ubc15\uacbd\ud658", "category": "\uae30\ud0c0", "lat": "37.5897891", "lon": "127.0161583", "loc_name": "\uc131\ubd81\uacbd\ucc30\uc18c"}, "88": {"writer_name": "\uc170\uc57c\ub514", "category": "\ud1b5\ud559\ub85c", "lat": "37.6106006", "lon": "126.9977295", "loc_name": "\uad6d\ubbfc\ub300\uacbd\uc601\uad00"}, "85": {"writer_name": "\ub450\ubbfc\uc81c", "category": "\uc9c0\ud558\ucca0\uc5ed", "lat": "37.5651571", "lon": "127.008221", "loc_name": "\ub3d9\ub300\ubb38\uc5ed\uc0ac\ubb38\ud654\uacf5\uc6d0\uc5ed"}, "84": {"writer_name": "20190278 \ucd5c\uc720\uc9c4", "category": "\uc9c0\ud558\ucca0\uc5ed", "lat": "37.60351", "lon": "127.0250773", "loc_name": "\uae38\uc74c\uc5ed2\ubc88 \ucd9c\uad6c\uc5d0\uc11c 4\ud638\uc120 \uac00\ub294\uae38"}, "82": {"writer_name": "20123183 \uae40\uc8fc\ud658", "category": "\ubc84\uc2a4\uc815\ub958\uc7a5", "lat": "37.6104047", "lon": "127.005083", "loc_name": "Gs25\uc55e"}, "81": {"writer_name": "\uae40\uc7ac\ud604", "category": "\uae30\ud0c0", "lat": "37.6104215", "lon": "126.9943616", "loc_name": "\uc9c0\ud558\uc138\uacc4\uacc4\ub2e8"}, "33": {"writer_name": "\uc774\ud559\uc724", "category": "\uc9c0\ud558\ucca0\uc5ed", "lat": "37.4918251", "lon": "127.0076621", "loc_name": "\uc11c\ucd08\uc5ed\ub0b4"}, "80": {"writer_name": "\uc774\ubbfc\ud658", "category": "\uc9c0\ud558\ucca0\uc5ed", "lat": "37.5560376", "lon": "126.9229759", "loc_name": "\ud64d\ub300\uc785\uad6c\uc5ed"}, "79": {"writer_name": "\uae40\ud61c\uc131", "category": "\uc9c0\ud558\ucca0\uc5ed", "lat": "37.4940189", "lon": "127.0143799", "loc_name": "\uad50\ub300\uc5ed \uc678\ubd80"}, "78": {"writer_name": "\uae40\ud61c\uc131", "category": "\uc9c0\ud558\ucca0\uc5ed", "lat": "37.4939629", "lon": "127.0146597", "loc_name": "\uad50\ub300\uc5ed \ub0b4\ubd80"}, "77": {"writer_name": "\uc774\ud604\ubbfc", "category": "\uc9c0\ud558\ucca0\uc5ed", "lat": "37.4848529", "lon": "126.9018961", "loc_name": "\uad6c\ub85c\ub514\uc9c0\ud138\ub2e8\uc9c0\uc5ed 1\ubc88 \ucd9c\uad6c"}, "76": {"writer_name": "\uc774\ud604\ubbfc", "category": "\uc9c0\ud558\ucca0\uc5ed", "lat": "37.4852646", "lon": "126.9013989", "loc_name": "\uad6c\ub85c\ub514\uc9c0\ud138\ub2e8\uc9c0\uc5ed \ub0b4\ubd80"}, "74": {"writer_name": "\uae40\ubc94\ud0dc", "category": "\uc9c0\ud558\ucca0\uc5ed", "lat": "37.4769835", "lon": "126.9817662", "loc_name": "\uc0ac\ub2f9\uc5ed \ub0b4\ubd80"}, "75": {"writer_name": "\uae40\ubc94\ud0dc", "category": "\uc9c0\ud558\ucca0\uc5ed", "lat": "37.4763824", "lon": "126.9824526", "loc_name": "\uc0ac\ub2f9\uc5ed \uc678\ubd80"}, "73": {"writer_name": "20150190 \uc774\uc8fc\uc544", "category": "\uc9c0\ud558\ucca0\uc5ed", "lat": "37.4923385", "lon": "126.8948386", "loc_name": "\ub300\ub9bc\uc5ed 2\ud638\uc120 1\ubc88 \ucd9c\uc785\uad6c"}, "72": {"writer_name": "20150190 \uc774\uc8fc\uc544", "category": "\uc9c0\ud558\ucca0\uc5ed", "lat": "37.4932611", "lon": "126.8949129", "loc_name": "\ub300\ub9bc\uc5ed 2\ud638\uc120 6-2\ubc88\ubb38"}, "71": {"writer_name": "\uc774\uc9c4\uc601", "category": "\uc9c0\ud558\ucca0\uc5ed", "lat": "37.4769446", "lon": "126.9637604", "loc_name": "\ub099\uc131\ub300\uc5ed \ucd9c\uc785\uad6c"}, "70": {"writer_name": "\uc774\uc9c4\uc601", "category": "\uc9c0\ud558\ucca0\uc5ed", "lat": "37.4769678", "lon": "126.963761", "loc_name": "\ub099\uc131\ub300\uc5ed \ub0b4\ubd80"}, "68": {"writer_name": "\ubc15\uc815\uc12d", "category": "\uc9c0\ud558\ucca0\uc5ed", "lat": "37.4814281", "lon": "126.9976119", "loc_name": "\ubc29\ubc30\uc5ed \ub0b4\ubd80"}, "69": {"writer_name": "\ubc15\uc815\uc12d", "category": "\uc9c0\ud558\ucca0\uc5ed", "lat": "37.4812121", "lon": "126.9979663", "loc_name": "\ubc29\ubc30\uc5ed \uc678\ubd80 1\ubc88\ucd9c\uad6c"}, "67": {"writer_name": "20141408 \uc784\ucc2c\uc601 \uacf5\uc5c5\ub514\uc790\uc778\ud559\uacfc", "category": "\uc9c0\ud558\ucca0\uc5ed", "lat": "37.5643771", "lon": "126.9769673", "loc_name": "\uc2dc\uccad\uc5ed \uc678\ubd80"}, "66": {"writer_name": "20141408 \uc784\ucc2c\uc601 \uacf5\uc5c5\ub514\uc790\uc778\ud559\uacfc", "category": "\uc9c0\ud558\ucca0\uc5ed", "lat": "37.6020697", "lon": "127.0243033", "loc_name": "\uc2dc\uccad\uc5ed \ub0b4\ubd80"}, "65": {"writer_name": "\uae40\ubc94\uc900", "category": "\uc9c0\ud558\ucca0\uc5ed", "lat": "37.5115376", "lon": "127.0764083", "loc_name": "\uc885\ud569\uc6b4\ub3d9\uc7a5\uc5ed 1\ubc88\ucd9c\uad6c"}, "64": {"writer_name": "\uae40\ubc94\uc900", "category": "\uc9c0\ud558\ucca0\uc5ed", "lat": "37.5115258", "lon": "127.0764325", "loc_name": "\uc885\ud569\uc6b4\ub3d9\uc7a5\uc5ed"}, "63": {"writer_name": "\ud615\uc724\uc9c0", "category": "\uc9c0\ud558\ucca0\uc5ed", "lat": "37.5506147", "lon": "126.9155851", "loc_name": "\ud569\uc815\uc5ed \uc678\ubd80"}, "62": {"writer_name": "\ud615\uc724\uc9c0", "category": "\uc9c0\ud558\ucca0\uc5ed", "lat": "37.5499948", "lon": "126.9145078", "loc_name": "\ud569\uc815\uc5ed \uc5ed\uc0ac \ub0b4\ubd80"}, "61": {"writer_name": "\uac15\uacbd\ubbfc", "category": "\uc9c0\ud558\ucca0\uc5ed", "lat": "37.5350082", "lon": "127.094957", "loc_name": "\uac15\ubcc0\uc5ed \uc678\ubd80"}, "60": {"writer_name": "\uac15\uacbd\ubbfc", "category": "\uc9c0\ud558\ucca0\uc5ed", "lat": "37.5351053", "lon": "127.0946822", "loc_name": "\uac15\ubcc0\uc5ed"}, "59": {"writer_name": "\uc774\uc120\uc815", "category": "\uc9c0\ud558\ucca0\uc5ed", "lat": "37.5370716", "lon": "127.0859711", "loc_name": "\uad6c\uc758\uc5ed \ub0b4\ubd80"}, "58": {"writer_name": "\uc774\uc120\uc815", "category": "\uc9c0\ud558\ucca0\uc5ed", "lat": "37.5367471", "lon": "127.0851084", "loc_name": "\uad6c\uc758\uc5ed \uc678\ubd80(4\ubc88\ucd9c\uad6c\uc55e)"}, "57": {"writer_name": "\uc774\uc120\uc815", "category": "\uc9c0\ud558\ucca0\uc5ed", "lat": "37.5142766", "lon": "127.0996793", "loc_name": "\uc7a0\uc2e4\uc5ed \uc678\ubd80(7\ubc88\ucd9c\uad6c\uc55e)"}, "56": {"writer_name": "\uc774\uc120\uc815", "category": "\uc9c0\ud558\ucca0\uc5ed", "lat": "37.5132776", "lon": "127.1001563", "loc_name": "\uc7a0\uc2e4\uc5ed \ub0b4\ubd80"}, "55": {"writer_name": "\uc804\ubcd1\uc6b0", "category": "\uc9c0\ud558\ucca0\uc5ed", "lat": "37.5812127", "lon": "127.046173", "loc_name": "\uc131\uc218\uc5ed \ub0b4\ubd80"}, "54": {"writer_name": "20190033 \uc804\ud61c\ub9b0", "category": "\uc9c0\ud558\ucca0\uc5ed", "lat": "37.5045289", "lon": "127.0490716", "loc_name": "\uc120\ub989\uc5ed2\ud638\uc120(\ub0b4\ubd80)"}, "32": {"writer_name": "20190033 \uc804\ud61c\ub9b0", "category": "\uc9c0\ud558\ucca0\uc5ed", "lat": "37.5040739", "lon": "127.0491723", "loc_name": "\uc120\ub989\uc5ed2\ud638\uc120(\uc678\ubd80)"}, "53": {"writer_name": "\ud45c\ud0dc\uc6d0", "category": "\uc9c0\ud558\ucca0\uc5ed", "lat": "37.4809319", "lon": "126.9524209", "loc_name": "\uc11c\uc6b8\ub300\uc785\uad6c\uc5ed \uc678\ubd80"}, "52": {"writer_name": "\ud45c\ud0dc\uc6d0", "category": "\uc9c0\ud558\ucca0\uc5ed", "lat": "37.4812463", "lon": "126.9527438", "loc_name": "\uc11c\uc6b8\ub300\uc785\uad6c\uc5ed \ub0b4\ubd80"}, "51": {"writer_name": "\uc2e0\ud61c\ub9bc", "category": "\uc9c0\ud558\ucca0\uc5ed", "lat": "37.566414", "lon": "126.9824334", "loc_name": "\uc744\uc9c0\ub85c\uc785\uad6c\uc5ed 2\ubc88 \ucd9c\uad6c \uc678\ubd80"}, "50": {"writer_name": "\uc2e0\ud61c\ub9bc", "category": "\uc9c0\ud558\ucca0\uc5ed", "lat": "37.5660022", "lon": "126.98238", "loc_name": "\uc744\uc9c0\ub85c \uc785\uad6c \ub0b4\ubd80"}, "49": {"writer_name": "\uc804\ubcd1\uc6b0", "category": "\uc9c0\ud558\ucca0\uc5ed", "lat": "37.548504", "lon": "127.0512412", "loc_name": "\uc131\uc218\uc5ed \uc678\ubd80"}, "48": {"writer_name": "\ud64d\uc608\uc6d0", "category": "\uc9c0\ud558\ucca0\uc5ed", "lat": "37.4980303", "lon": "127.028777", "loc_name": "2\ud638\uc120 \uac15\ub0a8\uc5ed \uc678\ubd80"}, "47": {"writer_name": "\ud64d\uc608\uc6d0", "category": "\uc9c0\ud558\ucca0\uc5ed", "lat": "37.4981068", "lon": "127.0283079", "loc_name": "2\ud638\uc120 \uac15\ub0a8\uc5ed \ub0b4\ubd80"}, "46": {"writer_name": "\ud64d\ud574\uc778", "category": "\uc9c0\ud558\ucca0\uc5ed", "lat": "37.5570232", "lon": "126.9460982", "loc_name": "2\ud638\uc120 \uc774\ub300\uc5ed \uc678\ubd80"}, "45": {"writer_name": "\ud64d\ud574\uc778", "category": "\uc9c0\ud558\ucca0\uc5ed", "lat": "37.5567462", "lon": "126.9460195", "loc_name": "2\ud638\uc120 \uc774\ub300\uc5ed \ub0b4\ubd80"}, "44": {"writer_name": "\ucd5c\uce58\ud638", "category": "\uc9c0\ud558\ucca0\uc5ed", "lat": "37.5603367", "lon": "126.9651566", "loc_name": "\ucda9\uc815\ub85c 2\ud638\uc120 \uc678\ubd80"}, "43": {"writer_name": "201970861\uc9c4\uaddc\uc6d0", "category": "\uc9c0\ud558\ucca0\uc5ed", "lat": "37.4873776", "lon": "126.9130336", "loc_name": "\uc2e0\ub300\ubc29\uc5ed\uc678\ubd80"}, "42": {"writer_name": "\ud589\uc815\uc815\ucc45\ud559\ubd80 \uc870\uc8fc\uc740", "category": "\uc9c0\ud558\ucca0\uc5ed", "lat": "37.557359", "lon": "126.9561173", "loc_name": "\uc544\ud604\uc5ed \ub0b4\ubd80"}, "41": {"writer_name": "\uc774\ud559\uc724", "category": "\uc9c0\ud558\ucca0\uc5ed", "lat": "37.4915116", "lon": "127.0071568", "loc_name": "\uc11c\ucd08\uc5ed 4\ubc88 \ucd9c\uad6c"}, "40": {"writer_name": "20191581 \uae40\ud558\uc5f0", "category": "\uc9c0\ud558\ucca0\uc5ed", "lat": "37.5084674", "lon": "127.0639178", "loc_name": "\uc0bc\uc131\uc5ed \uc678\ubd80(2\ubc88 \ucd9c\uad6c)"}}